{
  "city": {
    "name": "shanghai_people_square",
    "display_name": "上海 People Square",
    "center": {
      "lat": 31.2304,
      "lon": 121.4737
    },
    "bbox": {
      "south": 31.22,
      "west": 121.455,
      "north": 31.242,
      "east": 121.492
    }
  },
  "request": {
    "start": {
      "lat": 31.2215,
      "lon": 121.457,
      "altitude_m": 120.0
    },
    "end": {
      "lat": 31.2405,
      "lon": 121.49,
      "altitude_m": 120.0
    },
    "planning_mode": "building_only"
  },
  "planner": {
    "planning_mode": "building_only",
    "min_altitude_m": 0.0,
    "max_altitude_m": 390.0,
    "cell_m": 220.0,
    "safety_clearance_m": 25.0,
    "cruise_speed_mps": 14.0,
    "altitude_layers_m": [
      0.0,
      20.0,
      40.0,
      50.0,
      60.0,
      80.0,
      90.0,
      100.0,
      120.0,
      130.0,
      140.0,
      150.0,
      160.0,
      170.0,
      210.0,
      220.0,
      250.0,
      290.0,
      310.0,
      330.0,
      370.0
    ],
    "candidate_count": 5,
    "ranking_method": "entropy_weight_topsis",
    "monte_carlo_runs": 36,
    "ranking_weights": {
      "distance_m": 0.0785,
      "estimated_duration_s": 0.1195,
      "max_headwind_mps": 0.0,
      "max_crosswind_mps": 0.0,
      "max_turbulence_index": 0.0,
      "max_precipitation_mm": 0.0,
      "max_weather_risk_score": 0.0,
      "high_risk_exposure_ratio": 0.0,
      "average_urban_density": 0.3043,
      "overflight_exposure_index": 0.0798,
      "average_reachability_index": 0.3399,
      "corridor_diversity_index": 0.0779,
      "robustness_score": 0.0
    }
  },
  "routes": [
    {
      "route_id": "route_5",
      "label": "最快到达",
      "strategy": "fastest",
      "score": 90.16,
      "base_cost": 1131.38,
      "topsis_score": 85.95,
      "robustness_score": 100.0,
      "reliability_ratio": 1.0,
      "duration_p95_s": 402.89,
      "expected_delay_ratio": 0.0,
      "distance_m": 4565.47,
      "estimated_duration_s": 402.89,
      "max_wind_speed_mps": 0.0,
      "max_headwind_mps": 0.0,
      "max_crosswind_mps": 0.0,
      "max_turbulence_index": 0.0,
      "max_precipitation_mm": 0.0,
      "max_weather_risk_score": 0.0,
      "high_risk_exposure_ratio": 0.0,
      "average_urban_density": 0.437,
      "average_connectivity_index": 0.682,
      "minimum_connectivity_index": 0.55,
      "average_reachability_index": 0.664,
      "corridor_diversity_index": 0.406,
      "overflight_building_count": 81,
      "overflight_exposure_index": 41.938,
      "waypoint_count": 3,
      "recommended_rank": 1,
      "waypoints": [
        {
          "lat": 31.2209893,
          "lon": 121.4561569,
          "altitude_m": 120.0,
          "label": "航点1"
        },
        {
          "lat": 31.2447313,
          "lon": 121.4816087,
          "altitude_m": 100.0,
          "label": "航点2"
        },
        {
          "lat": 31.2407743,
          "lon": 121.4908639,
          "altitude_m": 120.0,
          "label": "航点3"
        }
      ]
    },
    {
      "route_id": "route_2",
      "label": "低风险",
      "strategy": "safest",
      "score": 51.65,
      "base_cost": 716.39,
      "topsis_score": 30.93,
      "robustness_score": 100.0,
      "reliability_ratio": 1.0,
      "duration_p95_s": 419.82,
      "expected_delay_ratio": 0.0,
      "distance_m": 4166.11,
      "estimated_duration_s": 419.82,
      "max_wind_speed_mps": 0.0,
      "max_headwind_mps": 0.0,
      "max_crosswind_mps": 0.0,
      "max_turbulence_index": 0.0,
      "max_precipitation_mm": 0.0,
      "max_weather_risk_score": 0.0,
      "high_risk_exposure_ratio": 0.0,
      "average_urban_density": 0.595,
      "average_connectivity_index": 0.55,
      "minimum_connectivity_index": 0.55,
      "average_reachability_index": 0.537,
      "corridor_diversity_index": 0.1,
      "overflight_building_count": 54,
      "overflight_exposure_index": 13.618,
      "waypoint_count": 4,
      "recommended_rank": 2,
      "waypoints": [
        {
          "lat": 31.2209893,
          "lon": 121.4561569,
          "altitude_m": 120.0,
          "label": "航点1"
        },
        {
          "lat": 31.2209893,
          "lon": 121.4561569,
          "altitude_m": 220.0,
          "label": "航点2"
        },
        {
          "lat": 31.2407743,
          "lon": 121.4908639,
          "altitude_m": 220.0,
          "label": "航点3"
        },
        {
          "lat": 31.2407743,
          "lon": 121.4908639,
          "altitude_m": 120.0,
          "label": "航点4"
        }
      ]
    },
    {
      "route_id": "route_4",
      "label": "均衡稳定推荐",
      "strategy": "balanced_stable",
      "score": 40.53,
      "base_cost": 995.67,
      "topsis_score": 15.05,
      "robustness_score": 100.0,
      "reliability_ratio": 1.0,
      "duration_p95_s": 526.25,
      "expected_delay_ratio": 0.0,
      "distance_m": 4290.84,
      "estimated_duration_s": 526.25,
      "max_wind_speed_mps": 0.0,
      "max_headwind_mps": 0.0,
      "max_crosswind_mps": 0.0,
      "max_turbulence_index": 0.0,
      "max_precipitation_mm": 0.0,
      "max_weather_risk_score": 0.0,
      "high_risk_exposure_ratio": 0.0,
      "average_urban_density": 0.73,
      "average_connectivity_index": 0.568,
      "minimum_connectivity_index": 0.55,
      "average_reachability_index": 0.551,
      "corridor_diversity_index": 0.29,
      "overflight_building_count": 58,
      "overflight_exposure_index": 23.899,
      "waypoint_count": 3,
      "recommended_rank": 3,
      "waypoints": [
        {
          "lat": 31.2209893,
          "lon": 121.4561569,
          "altitude_m": 120.0,
          "label": "航点1"
        },
        {
          "lat": 31.2289033,
          "lon": 121.4839225,
          "altitude_m": 370.0,
          "label": "航点2"
        },
        {
          "lat": 31.2407743,
          "lon": 121.4908639,
          "altitude_m": 120.0,
          "label": "航点3"
        }
      ]
    },
    {
      "route_id": "route_1",
      "label": "能耗最少",
      "strategy": "energy_saving",
      "score": 40.19,
      "base_cost": 915.14,
      "topsis_score": 14.55,
      "robustness_score": 100.0,
      "reliability_ratio": 1.0,
      "duration_p95_s": 475.78,
      "expected_delay_ratio": 0.0,
      "distance_m": 4063.94,
      "estimated_duration_s": 475.78,
      "max_wind_speed_mps": 0.0,
      "max_headwind_mps": 0.0,
      "max_crosswind_mps": 0.0,
      "max_turbulence_index": 0.0,
      "max_precipitation_mm": 0.0,
      "max_weather_risk_score": 0.0,
      "high_risk_exposure_ratio": 0.0,
      "average_urban_density": 0.73,
      "average_connectivity_index": 0.55,
      "minimum_connectivity_index": 0.55,
      "average_reachability_index": 0.532,
      "corridor_diversity_index": 0.27,
      "overflight_building_count": 54,
      "overflight_exposure_index": 21.929,
      "waypoint_count": 3,
      "recommended_rank": 4,
      "waypoints": [
        {
          "lat": 31.2209893,
          "lon": 121.4561569,
          "altitude_m": 120.0,
          "label": "航点1"
        },
        {
          "lat": 31.2348388,
          "lon": 121.4862363,
          "altitude_m": 290.0,
          "label": "航点2"
        },
        {
          "lat": 31.2407743,
          "lon": 121.4908639,
          "altitude_m": 120.0,
          "label": "航点3"
        }
      ]
    },
    {
      "route_id": "route_3",
      "label": "最畅通路线",
      "strategy": "most_accessible",
      "score": 39.11,
      "base_cost": 1048.09,
      "topsis_score": 13.02,
      "robustness_score": 100.0,
      "reliability_ratio": 1.0,
      "duration_p95_s": 504.38,
      "expected_delay_ratio": 0.0,
      "distance_m": 4017.88,
      "estimated_duration_s": 504.38,
      "max_wind_speed_mps": 0.0,
      "max_headwind_mps": 0.0,
      "max_crosswind_mps": 0.0,
      "max_turbulence_index": 0.0,
      "max_precipitation_mm": 0.0,
      "max_weather_risk_score": 0.0,
      "high_risk_exposure_ratio": 0.0,
      "average_urban_density": 0.73,
      "average_connectivity_index": 0.55,
      "minimum_connectivity_index": 0.55,
      "average_reachability_index": 0.532,
      "corridor_diversity_index": 0.29,
      "overflight_building_count": 69,
      "overflight_exposure_index": 28.451,
      "waypoint_count": 3,
      "recommended_rank": 5,
      "waypoints": [
        {
          "lat": 31.2209893,
          "lon": 121.4561569,
          "altitude_m": 120.0,
          "label": "航点1"
        },
        {
          "lat": 31.2368173,
          "lon": 121.4816087,
          "altitude_m": 370.0,
          "label": "航点2"
        },
        {
          "lat": 31.2407743,
          "lon": 121.4908639,
          "altitude_m": 120.0,
          "label": "航点3"
        }
      ]
    }
  ]
}